{"id": 1, "tipo": "Anfibio", "nombre_co": "Rana de vidrio", "nombre_ci": "Hyalinobatrachium colymbiphyllum)", "habitat": "selva humeda boyacence", "latitud": -4.568, "longitud": 5.683, "altitud": 2800, "imagen": "https://static.inaturalist.org/photos/73725/small.JPG"}
{"id": 2, "tipo": "insecto", "nombre_co": "Mariposa reina", "nombre_ci": "Danaus gilippus", "habitat": "Puerto Boyac\u00e1", "latitud": 6.050481, "longitud": -74.534085, "altitud": 1800, "imagen": "https://inaturalist-open-data.s3.amazonaws.com/photos/9687542/large.jpeg"}
{"id": 3, "tipo": "mamifero", "nombre_co": "Venado de cola blanca", "nombre_ci": "Odocoileus virginianus", "habitat": "Guican", "latitud": 6.386188, "longitud": -72.346253, "altitud": 3900, "imagen": "https://inaturalist-open-data.s3.amazonaws.com/photos/110157765/medium.jpg"}
{"id": 4, "tipo": "Ave", "nombre_co": "Piranga Roja", "nombre_ci": "Piranga rubra", "habitat": "paya", "latitud": 5.600089, "longitud": -72.344184, "altitud": 1220, "imagen": "https://static.inaturalist.org/photos/350682911/large.jpeg"}
{"id": 4, "tipo": "ave", "nombre_co": "Gavil\u00e1n Maromero", "nombre_ci": "Elanus leucurus", "habitat": "Chiquiza", "latitud": 5.631505, "longitud": -73.535238, "altitud": 3000, "imagen": "https://static.inaturalist.org/photos/114637752/medium.jpeg"}
